// Generated by
//CorpusAbierto

[
  {
    "name": "Accio",
    "freq": 2,
    "type": "Ciudad",
    "lat": 38.953,
    "lng": 20.768
  },
  {
    "name": "Afytis",
    "freq": 1,
    "type": "Ciudad",
    "lat": 40.1,
    "lng": 23.435
  },
  {
    "name": "Ambracia",
    "freq": 3,
    "type": "Ciudad",
    "lat": 39.158,
    "lng": 20.987
  },
  {
    "name": "Anfípolis",
    "freq": 1,
    "type": "Ciudad",
    "lat": 40.818333,
    "lng": 23.84
  },
  {
    "name": "Apolonia",
    "freq": 1,
    "type": "Ciudad",
    "lat": 40.716667,
    "lng": 19.466667
  },
  {
    "name": "Argos",
    "freq": 4,
    "type": "Ciudad",
    "lat": 37.616667,
    "lng": 22.716667
  },
  {
    "name": "Arne",
    "freq": 1,
    "type": "Ciudad",
    "lat": 39.400231,
    "lng": 22.066281
  },
  {
    "name": "Atenas",
    "freq": 75,
    "type": "Ciudad",
    "lat": 37.9838,
    "lng": 23.7275
  },
  {
    "name": "Bizancio",
    "freq": 7,
    "type": "Ciudad",
    "lat": 41.015278,
    "lng": 28.984722
  },
  {
    "name": "Calcis",
    "freq": 2,
    "type": "Ciudad",
    "lat": 38.4625,
    "lng": 23.595
  },
  {
    "name": "Cauno",
    "freq": 1,
    "type": "Ciudad",
    "lat": 36.825278,
    "lng": 28.623056
  },
  {
    "name": "Cirene",
    "freq": 1,
    "type": "Ciudad",
    "lat": 32.825,
    "lng": 21.858056
  },
  {
    "name": "Corcira",
    "freq": 3,
    "type": "Ciudad",
    "lat": 39.607222,
    "lng": 19.918333
  },
  {
    "name": "Corinto",
    "freq": 45,
    "type": "Ciudad",
    "lat": 37.937,
    "lng": 22.932
  },
  {
    "name": "Delfos",
    "freq": 10,
    "type": "Ciudad",
    "lat": 38.4823,
    "lng": 22.5013
  },
  {
    "name": "Drabesco",
    "freq": 1,
    "type": "Ciudad",
    "lat": 41.151389,
    "lng": 24.139167
  },
  {
    "name": "Éfeso",
    "freq": 1,
    "type": "Ciudad",
    "lat": 37.941111,
    "lng": 27.341944
  },
  {
    "name": "Egina (Sarónica)",
    "freq": 11,
    "type": "Ciudad",
    "lat": 37.73,
    "lng": 23.49
  },
  {
    "name": "Eleusis",
    "freq": 1,
    "type": "Ciudad",
    "lat": 38.041389,
    "lng": 23.545278
  },
  {
    "name": "Epidamno",
    "freq": 15,
    "type": "Ciudad",
    "lat": 41.26666,
    "lng": 19.5
  },
  {
    "name": "Epidauro",
    "freq": 1,
    "type": "Ciudad",
    "lat": 37.597778,
    "lng": 23.074444
  },
  {
    "name": "Eretria",
    "freq": 1,
    "type": "Ciudad",
    "lat": 38.398056,
    "lng": 23.790556
  },
  {
    "name": "Eyón",
    "freq": 1,
    "type": "Ciudad",
    "lat": 40.788754,
    "lng": 23.89065
  },
  {
    "name": "Fársalo",
    "freq": 1,
    "type": "Ciudad",
    "lat": 39.283333,
    "lng": 22.383333
  },
  {
    "name": "Itome",
    "freq": 6,
    "type": "Ciudad",
    "lat": 37.186111,
    "lng": 21.925
  },
  {
    "name": "Lacedemonia",
    "freq": 25,
    "type": "Ciudad",
    "lat": 37.081944,
    "lng": 22.423611
  },
  {
    "name": "Lámpsaco",
    "freq": 1,
    "type": "Ciudad",
    "lat": 40.346667,
    "lng": 26.699167
  },
  {
    "name": "Lesbos",
    "freq": 3,
    "type": "Ciudad",
    "lat": 39.216667,
    "lng": 26.283333
  },
  {
    "name": "Marsella (Massalía)",
    "freq": 1,
    "type": "Ciudad",
    "lat": 43.296667,
    "lng": 5.376389
  },
  {
    "name": "Mégara",
    "freq": 12,
    "type": "Ciudad",
    "lat": 37.996389,
    "lng": 23.344444
  },
  {
    "name": "Menfis",
    "freq": 2,
    "type": "Ciudad",
    "lat": 29.844722,
    "lng": 31.250833
  },
  {
    "name": "Micenas",
    "freq": 3,
    "type": "Ciudad",
    "lat": 37.730833,
    "lng": 22.756111
  },
  {
    "name": "Mileto",
    "freq": 2,
    "type": "Ciudad",
    "lat": 37.531111,
    "lng": 27.275556
  },
  {
    "name": "Miunte",
    "freq": 1,
    "type": "Ciudad",
    "lat": 37.762222,
    "lng": 27.429444
  },
  {
    "name": "Naupacto",
    "freq": 1,
    "type": "Ciudad",
    "lat": 38.393889,
    "lng": 21.830556
  },
  {
    "name": "Nisea (Puerto megáride)",
    "freq": 2,
    "type": "Ciudad",
    "lat": 37.994444,
    "lng": 23.338333
  },
  {
    "name": "Olimpia",
    "freq": 2,
    "type": "Ciudad",
    "lat": 37.638333,
    "lng": 21.63
  },
  {
    "name": "Olinto",
    "freq": 6,
    "type": "Ciudad",
    "lat": 40.29275,
    "lng": 23.354528
  },
  {
    "name": "Pidna",
    "freq": 3,
    "type": "Ciudad",
    "lat": 40.366667,
    "lng": 22.583333
  },
  {
    "name": "Pireo",
    "freq": 5,
    "type": "Ciudad",
    "lat": 37.943,
    "lng": 23.646944
  },
  {
    "name": "Platea",
    "freq": 1,
    "type": "Ciudad",
    "lat": 38.219992,
    "lng": 23.273853
  },
  {
    "name": "Potidea",
    "freq": 24,
    "type": "Ciudad",
    "lat": 40.2,
    "lng": 23.333333
  },
  {
    "name": "Priene",
    "freq": 1,
    "type": "Ciudad",
    "lat": 37.659722,
    "lng": 27.297778
  },
  {
    "name": "Queronea",
    "freq": 2,
    "type": "Ciudad",
    "lat": 38.495,
    "lng": 22.8475
  },
  {
    "name": "Sardes",
    "freq": 1,
    "type": "Ciudad",
    "lat": 38.488333,
    "lng": 28.040278
  },
  {
    "name": "Sesto",
    "freq": 1,
    "type": "Ciudad",
    "lat": 40.216667,
    "lng": 26.383333
  },
  {
    "name": "Sición",
    "freq": 3,
    "type": "Ciudad",
    "lat": 37.984104,
    "lng": 22.711145
  },
  {
    "name": "Tebas",
    "freq": 1,
    "type": "Ciudad",
    "lat": 38.320833,
    "lng": 23.317778
  },
  {
    "name": "Trecén",
    "freq": 2,
    "type": "Ciudad",
    "lat": 37.497222,
    "lng": 23.363056
  },
  {
    "name": "Tróade (Ciudad y región)",
    "freq": 1,
    "type": "Ciudad",
    "lat": 39.8,
    "lng": 26.5
  },
  {
    "name": "Troya",
    "freq": 6,
    "type": "Ciudad",
    "lat": 39.9575,
    "lng": 26.238889
  },
  {
    "name": "Acarnania",
    "freq": 1,
    "type": "Región",
    "lat": 38.75,
    "lng": 21.083333
  },
  {
    "name": "Acaya",
    "freq": 1,
    "type": "Región",
    "lat": 38.086811,
    "lng": 21.859839
  },
  {
    "name": "Arcadia",
    "freq": 1,
    "type": "Región",
    "lat": 37.583333,
    "lng": 22.25
  },
  {
    "name": "Asia",
    "freq": 2,
    "type": "Región",
    "lat": 39.916667,
    "lng": 32.85
  },
  {
    "name": "Ática",
    "freq": 14,
    "type": "Región",
    "lat": 38.0,
    "lng": 23.7
  },
  {
    "name": "Beocia",
    "freq": 8,
    "type": "Región",
    "lat": 38.44,
    "lng": 22.88
  },
  {
    "name": "Calcídica",
    "freq": 1,
    "type": "Región",
    "lat": 40.583333,
    "lng": 23.5
  },
  {
    "name": "Caria",
    "freq": 2,
    "type": "Región",
    "lat": 37.5,
    "lng": 28.0
  },
  {
    "name": "Cícladas (Islas)",
    "freq": 1,
    "type": "Región",
    "lat": 37.0,
    "lng": 25.2
  },
  {
    "name": "Egeo (Mar)",
    "freq": 1,
    "type": "Región",
    "lat": 39.0,
    "lng": 25.0
  },
  {
    "name": "Egipto",
    "freq": 12,
    "type": "Región",
    "lat": 26.0,
    "lng": 30.0
  },
  {
    "name": "Élide",
    "freq": 1,
    "type": "Región",
    "lat": 37.666667,
    "lng": 21.5
  },
  {
    "name": "Europa",
    "freq": 1,
    "type": "Región",
    "lat": 45.58,
    "lng": 9.91
  },
  {
    "name": "Fócide",
    "freq": 1,
    "type": "Región",
    "lat": 38.5253,
    "lng": 22.3753
  },
  {
    "name": "Ftiótide",
    "freq": 2,
    "type": "Región",
    "lat": 38.9,
    "lng": 22.533333
  },
  {
    "name": "Grecia",
    "freq": 44,
    "type": "Región",
    "lat": 39.0,
    "lng": 22.0
  },
  {
    "name": "Helesponto",
    "freq": 3,
    "type": "Región",
    "lat": 40.2,
    "lng": 26.4
  },
  {
    "name": "Italia",
    "freq": 3,
    "type": "Región",
    "lat": 43.0,
    "lng": 12.0
  },
  {
    "name": "Jonia",
    "freq": 4,
    "type": "Región",
    "lat": 38.2,
    "lng": 27.4
  },
  {
    "name": "Libia",
    "freq": 1,
    "type": "Región",
    "lat": 27.0,
    "lng": 17.0
  },
  {
    "name": "Macedonia",
    "freq": 5,
    "type": "Región",
    "lat": 40.76,
    "lng": 22.519167
  },
  {
    "name": "Magnesia",
    "freq": 1,
    "type": "Región",
    "lat": 37.852692,
    "lng": 27.527104
  },
  {
    "name": "Meda",
    "freq": 9,
    "type": "Región",
    "lat": 37.0,
    "lng": 47.0
  },
  {
    "name": "Palene (Península)",
    "freq": 7,
    "type": "Región",
    "lat": 40.022928,
    "lng": 23.433411
  },
  {
    "name": "Panfilia",
    "freq": 1,
    "type": "Región",
    "lat": 37.0,
    "lng": 31.0
  },
  {
    "name": "Peloponeso",
    "freq": 32,
    "type": "Región",
    "lat": 37.349722,
    "lng": 22.352222
  },
  {
    "name": "Persia",
    "freq": 1,
    "type": "Región",
    "lat": 32.0,
    "lng": 53.0
  },
  {
    "name": "Tanagra",
    "freq": 1,
    "type": "Región",
    "lat": 38.32781,
    "lng": 23.53798
  },
  {
    "name": "Tesalia",
    "freq": 3,
    "type": "Región",
    "lat": 39.6,
    "lng": 22.2
  },
  {
    "name": "Tracia",
    "freq": 6,
    "type": "Región",
    "lat": 42.0,
    "lng": 26.0
  },
  {
    "name": "Chipre",
    "freq": 4,
    "type": "Isla",
    "lat": 35.0,
    "lng": 33.0
  },
  {
    "name": "Delos",
    "freq": 2,
    "type": "Isla",
    "lat": 37.4,
    "lng": 25.2667
  },
  {
    "name": "Eubea",
    "freq": 7,
    "type": "Isla",
    "lat": 38.5,
    "lng": 24.0
  },
  {
    "name": "Lemnos (Egeo septentrional)",
    "freq": 2,
    "type": "Isla",
    "lat": 39.916667,
    "lng": 25.25
  },
  {
    "name": "Léucade (Jónico)",
    "freq": 5,
    "type": "Isla",
    "lat": 38.717778,
    "lng": 20.643889
  },
  {
    "name": "Naxos (Cícladas)",
    "freq": 2,
    "type": "Isla",
    "lat": 37.1,
    "lng": 25.366667
  },
  {
    "name": "Sicilia",
    "freq": 5,
    "type": "Isla",
    "lat": 37.5,
    "lng": 14.0
  },
  {
    "name": "Tasos",
    "freq": 1,
    "type": "Isla",
    "lat": 40.683333,
    "lng": 24.65
  },
  {
    "name": "Zacinto",
    "freq": 1,
    "type": "Isla",
    "lat": 37.8,
    "lng": 20.75
  },
  {
    "name": "Nilo",
    "freq": 2,
    "type": "Río",
    "lat": 30.0444,
    "lng": 31.2357
  }
]